[
    {
        "name": "Hiper Córdoba Colón",
        "lat": -31.395841,
        "lng": -64.243528,
        "address": "Av Colón 4880",
        "type": "hiper"
    },
    {"name":"194 - Mini - Jacinto de Altolaguirre","lat":-31.383117,"lng":-64.134005,"address":"Jacinto de Altolaguirre  1679","type":"express"},
{"name":"223 - Mini - Octavio Pinto","lat":-31.3887,"lng":-64.2161,"address":"Octavio Pinto 2665","type":"express"},
{"name":"224 - Mini - Ambrosio Olmos","lat":-31.431865,"lng":-64.191609,"address":"Ambrosio Olmos 929","type":"express"},
{"name":"225 - Mini - Jose Roque Funes","lat":-31.380432,"lng":-64.244987,"address":"Jose Roque Funes 1145","type":"express"},
{"name":"280 - Mini - China","lat":-31.377671,"lng":-64.277578,"address":"República de China 1045","type":"express"},
{"name":"281 - Mini -  Sagrada Familia","lat":-31.386710,"lng":-64.227444,"address":"Sagrada Familia 1305","type":"express"},
{"name":"295 - Market Cordoba Granaderos","lat":-31.374561,"lng":-64.213833,"address":"Bv. Los Granaderos 2906","type":"express"},
{"name":"606 - Proxi - Obispo Trejo","lat":-31.42881,"lng":-64.1910,"address":"Obispo Trejo 1166","type":"express"},
{"name":"644 - Proxi - 25 de Mayo ","lat":-31.4154,"lng":-64.1695,"address":"25 de Mayo 979","type":"express"},
{"name":"736 - Proxi - Chile","lat":-31.4301,"lng":-64.1880,"address":"Chile 154","type":"express"},
{"name":"762 - Mini - Sarachaga","lat":-31.3907,"lng":-64.1849,"address":"Sarachaga 780","type":"express"},
{"name":"767 - Mini - 24 de Septiembre","lat":-31.4127,"lng":-64.1625,"address":"24 de Septiembre 1500","type":"express"},
{"name":"771 - Mini - Santa Fe","lat":-31.4028,"lng":-64.1988,"address":"Santa Fé 723","type":"express"},
{"name":"784 - Mini - Bedoya","lat":-31.3979,"lng":-64.1867,"address":"Bedoya 695","type":"express"},
{"name":"786 - Mini - Lima ","lat":-31.4135,"lng":-64.1702,"address":"Lima 987","type":"express"},
{"name":"789 - Mini - Duarte Quirós ","lat":-31.4090,"lng":-64.2160,"address":"Duarte Quirós 1851","type":"express"},
{"name":"794 - Mini - Mariano Fragueiro","lat":-31.3893,"lng":-64.1836,"address":"Mariano Fragueiro 2220","type":"express"},
{"name":"806 - Mini - Altolaguirre","lat":-31.3895,"lng":-64.1847,"address":"Altolaguirre 2222","type":"express"},
{"name":"807 - Mini -Capdevilla","lat":-31.3802,"lng":-64.1711,"address":"Capdevilla 264","type":"express"},
{"name":"810 - Mini - Av. Colón","lat":-31.4064,"lng":-64.2065,"address":"Colón 1750","type":"express"},
{"name":"814 - Mini - San Jerónimo","lat":-31.4237,"lng":-64.1451,"address":"San Jerónimo 3034","type":"express"},
{"name":"817 - Mini - Duarte Quirós","lat":-31.4091,"lng":-64.2159,"address":"Duarte Quirós 2400","type":"express"},
{"name":"818 - Mini - Velez Sarsfield","lat":-31.4268,"lng":-64.1916,"address":"Velez Sarsfield 1045","type":"express"},
{"name":"820 - Mini - Castro Barros","lat":-31.4016,"lng":-64.1962,"address":"Castro Barros 359","type":"express"},
{"name":"821 - Mini - Santa Fe","lat":-31.4099,"lng":-64.2015,"address":"Santa Fé 49","type":"express"},
{"name":"844 - Mini - Nazaret","lat":-31.3927,"lng":-64.2231,"address":"Nazaret 2950","type":"express"},
{"name":"846 - Mini - Santiago Temple","lat":-31.4312,"lng":-64.1936,"address":"Santiago Temple 212","type":"express"},
{"name":"872 - Mini - San Martin","lat":-31.1675,"lng":-64.3194,"address":"San Martin 4840","type":"express"},
{"name":"874 - Mini - Caraffa Claudio Cuenca","lat":-31.387238,"lng":-64.215094,"address":"Caraffa, Claudio Cuenca 1784 - Alta Gracia","type":"express"},
{"name":"222 - Mini - Parana","lat":-31.423520,"lng":-64.179538,"address":"Parana 473","type":"express"},
{"name":"607 - Proxi - Chacabuco","lat":-31.426063,"lng":-64.183516,"address":"Chacabuco 727","type":"express"},
{"name":"610 - Proxi - Pueyrredon","lat":-31.425954,"lng":-64.192771,"address":"Pueyrredon 298 ","type":"express"},
{"name":"641 - Proxi - Alvear","lat":-31.415188,"lng":-64.180472,"address":"Alvear 126","type":"express"},
{"name":"642 - Proxi - General Paz","lat":-31.412326,"lng":-64.185309,"address":"General Paz 240 ","type":"express"},
{"name":"648 - Proxi - Belgrano","lat":-31.415328,"lng":-64.188543,"address":"Belgrano 54 ","type":"express"},
{"name":"650 - Proxi -  San Martin","lat":-31.415625,"lng":-64.183797,"address":"San Martin 26 ","type":"express"},
{"name":"720 - Proxi - Independencia","lat":-31.423059,"lng":-64.186934,"address":"Independencia 585","type":"express"},
{"name":"764 - Mini - San Lorenzo ","lat":-31.423059,"lng":-64.186934,"address":"San Lorenzo 480","type":"express"},
{"name":"765 - Mini - Buenos Aires ","lat":-31.417147,"lng":-64.182959,"address":"Buenos Aires 65 ","type":"express"},
{"name":"766 - Mini - 27 de Abril ","lat":-31.415213,"lng":-64.190599,"address":"27 de Abril 458 ","type":"express"},
{"name":"768 - Mini - Independencia ","lat":-31.426248,"lng":-64.188337,"address":"Independencia 855 ","type":"express"},
{"name":"769 - Mini - San Martin","lat":-31.408885,"lng":-64.181155,"address":"San Martin 625","type":"express"},
{"name":"770 - Mini - Ituzaingo","lat":-31.422982,"lng":-64.184168,"address":"Ituzaingo 514 ","type":"express"},
{"name":"772 - Mini - Lavalleja","lat":-31.412884,"lng":-64.192039,"address":"Lavalleja 49","type":"express"},
{"name":"776 - Mini - Illia","lat":-31.422730,"lng":-64.179656,"address":"Illia 490","type":"express"},
{"name":"785 - Mini - San Juan","lat":-31.420202,"lng":-64.189442,"address":"San Juan 217","type":"express"},
{"name":"790 - Mini - Ituzaingo ","lat":-31.427857,"lng":-64.185949,"address":"Ituzaingo 921","type":"express"},
{"name":"793 - Mini - San Juan","lat":-31.418014,"lng":-64.197183,"address":"San Juan 835","type":"express"},
{"name":"813 - Mini - Colon","lat":-31.409106,"lng":-64.197696,"address":"Colón 1088","type":"express"},
{"name":"824 - Mini - San Martin","lat":-31.242548,"lng":-64.465669,"address":"San Martin 940 - Cosquin","type":"express"},
{"name":"825 - Mini - Sarmiento","lat":-32.720287,"lng":-68.596495,"address":"Sarmiento 5 - Tulumba","type":"express"},
{"name":"847 - Mini - Eden","lat":-31.092851,"lng":-64.481477,"address":"Eden 499 - La Falda","type":"express"},
{"name":"853 - Mini - Colón","lat":-31.410638,"lng":-64.191883,"address":"Colón 636","type":"express"},
{"name":"860 - Mini - Lopez y Planes","lat":-30.982338,"lng":-64.492219,"address":"Lopez y Planes 265 - La Cumbre","type":"express"},
{"name":"861 - Mini - Prudencio Bustos","lat":-31.656890,"lng":-64.428628,"address":"Prudencio Bustos 122 -  Alta Gracia","type":"express"},
{"name":"865 - Mini - San Martin","lat":-31.23926,"lng":-64.46459,"address":"San Martin 623 - Cosquin","type":"express"},
{"name":"867 - Mini - 9 de Julio","lat":-31.090871,"lng":-64.485344,"address":"9 de Julio 156 - La Falda","type":"express"},
{"name":"873 - Mini - Santiago Derqui","lat":-31.425429,"lng":-64.187617,"address":"Santiago Derqui 33","type":"express"},
{"name":"24- Córdoba Barrio Jardín","lat":-31.455445,"lng":-64.165142,"address":"Bernardo O'Higgins 3765","type":"hiper"},
{"name":"50- Córdoba Recta Martinolli","lat":-31.346394,"lng":-64.270008,"address":"Recta Martinolli 7850","type":"hiper"},
{"name":"54- Córdoba Villa Allende","lat":-31.2997,"lng":-64.2765,"address":"Río de Janeiro 1787","type":"hiper"},
{"name":"516 - Maxi Cacheuta","lat":-31.4608,"lng":-64.2151,"address":"Cacheuta 4509","type":"maxi"},
{"name":"707 -  Maxi Juan B Justo","lat":-31.3680,"lng":-64.1776,"address":"Av Juan B. Justo 4775","type":"maxi"}

    
]
